{"type":"FeatureCollection","crs":{"type":"name","properties":{"name":"urn:ogc:def:crs:OGC:1.3:CRS84"}},"features":[{"type":"Feature","id":1,"geometry":{"type":"Point","coordinates":[4.47503859611708,52.1647572256608]},"properties":{"OBJECTID":1,"ID":"LZI0118","ZICHTB":"Aanwezig","OMSCHR":"Het Pesthuis wordt omgeven door wegen, vanaf waar je het object (zijdelings) kan zien. Het object is echter niet van een grotere afstand waarneembaar.","FUNCTIE":"Zichtlocatie","NAUWK":"Nauwkeurig (object nog (deels) aanwezig/herkenbaar)","BRONGEO":"Huidige topografie","NAAMNU":"voormalig pesthuis","NAAMHIST":"voormalig pesthuis","LIT":"Bron: Gemeente Leiden","LITTOEV":null}},{"type":"Feature","id":2,"geometry":{"type":"Point","coordinates":[4.48818658295721,52.1577155684266]},"properties":{"OBJECTID":2,"ID":"LZI0119","ZICHTB":"Aanwezig","OMSCHR":"De Pieterskerk is vanaf de grond niet vanaf een afstand te zien.","FUNCTIE":"Zichtlocatie","NAUWK":"Nauwkeurig (object nog (deels) aanwezig/herkenbaar)","BRONGEO":"Huidige topografie","NAAMNU":"Pieterskerk","NAAMHIST":"Pieterskerk","LIT":"Bron: Gemeente Leiden","LITTOEV":null}},{"type":"Feature","id":3,"geometry":{"type":"Point","coordinates":[4.49416416330058,52.1582140114752]},"properties":{"OBJECTID":3,"ID":"LZI0120","ZICHTB":"Aanwezig","OMSCHR":"De Hooglandse kerk is een grote opvallende kerk, echter niet vanaf de grond. Dan is de kerk ‘verstopt’ in het stedelijke bebouwde gebied.","FUNCTIE":"Zichtlocatie","NAUWK":"Nauwkeurig (object nog (deels) aanwezig/herkenbaar)","BRONGEO":"Huidige topografie","NAAMNU":"Hooglandse Kerk","NAAMHIST":"Hooglandse Kerk","LIT":"Bron: Gemeente Leiden","LITTOEV":null}},{"type":"Feature","id":4,"geometry":{"type":"Point","coordinates":[4.44978035804966,52.1606172458751]},"properties":{"OBJECTID":4,"ID":"LZI0121","ZICHTB":"Aanwezig","OMSCHR":"De voormalige buitenplaats is vooral vanaf het water te zien, echter niet vanaf een grotere afstand.","FUNCTIE":"Zichtlocatie","NAUWK":"Nauwkeurig (object nog (deels) aanwezig/herkenbaar)","BRONGEO":"Huidige topografie","NAAMNU":"Rhijnhof","NAAMHIST":"Rhijnhof","LIT":"Bron: Gemeente Leiden","LITTOEV":null}},{"type":"Feature","id":5,"geometry":{"type":"Point","coordinates":[4.4821336869621,52.1620359288306]},"properties":{"OBJECTID":5,"ID":"LZI0122","ZICHTB":"Aanwezig","OMSCHR":"De Morspoort is een van de historische toegangen van de stad.","FUNCTIE":"Zichtlocatie","NAUWK":"Nauwkeurig (object nog (deels) aanwezig/herkenbaar)","BRONGEO":"Huidige topografie","NAAMNU":"Morspoort","NAAMHIST":"Morspoort","LIT":"Bron: Gemeente Leiden","LITTOEV":null}},{"type":"Feature","id":6,"geometry":{"type":"Point","coordinates":[4.50418715471072,52.1617261852752]},"properties":{"OBJECTID":6,"ID":"LZI0123","ZICHTB":"Aanwezig","OMSCHR":"De Zijlpoort is een van de historische toegangen van de stad.","FUNCTIE":"Zichtlocatie","NAUWK":"Nauwkeurig (object nog (deels) aanwezig/herkenbaar)","BRONGEO":"Huidige topografie","NAAMNU":"Zijlpoort","NAAMHIST":"Zijlpoort","LIT":"Bron: Gemeente Leiden","LITTOEV":null}},{"type":"Feature","id":7,"geometry":{"type":"Point","coordinates":[4.49162834232271,52.1560802135089]},"properties":{"OBJECTID":7,"ID":"LZI0124","ZICHTB":"Aanwezig","OMSCHR":"De Lodewijkskerk als zichtlocatie.","FUNCTIE":"Zichtlocatie","NAUWK":"Nauwkeurig (object nog (deels) aanwezig/herkenbaar)","BRONGEO":"Huidige topografie","NAAMNU":"Lodewijkskerk","NAAMHIST":"Lodewijkskerk","LIT":"Bron: Gemeente Leiden","LITTOEV":null}},{"type":"Feature","id":8,"geometry":{"type":"Point","coordinates":[4.48540031257643,52.1569750722336]},"properties":{"OBJECTID":8,"ID":"LZI0125","ZICHTB":"Aanwezig","OMSCHR":"Het Academiegebouwals zichtlocatie.","FUNCTIE":"Zichtlocatie","NAUWK":"Nauwkeurig (object nog (deels) aanwezig/herkenbaar)","BRONGEO":"Huidige topografie","NAAMNU":"Academiegebouw","NAAMHIST":"Academiegebouw","LIT":"Bron: Gemeente Leiden","LITTOEV":null}},{"type":"Feature","id":9,"geometry":{"type":"Point","coordinates":[4.50402211802334,52.1591216693566]},"properties":{"OBJECTID":9,"ID":"LZI0126","ZICHTB":"Aanwezig","OMSCHR":"De Meelfabriekals zichtlocatie.","FUNCTIE":"Zichtlocatie","NAUWK":"Nauwkeurig (object nog (deels) aanwezig/herkenbaar)","BRONGEO":"Huidige topografie","NAAMNU":"Meelfabriek","NAAMHIST":"Meelfabriek","LIT":"Bron: Gemeente Leiden","LITTOEV":null}},{"type":"Feature","id":10,"geometry":{"type":"Point","coordinates":[4.49249758093771,52.1590921105296]},"properties":{"OBJECTID":10,"ID":"LZI0127","ZICHTB":"Aanwezig","OMSCHR":"De Burcht als zichtlocatie.","FUNCTIE":"Zichtlocatie","NAUWK":"Nauwkeurig (object nog (deels) aanwezig/herkenbaar)","BRONGEO":"Huidige topografie","NAAMNU":"Burcht","NAAMHIST":"Burcht","LIT":"Bron: Gemeente Leiden","LITTOEV":null}},{"type":"Feature","id":11,"geometry":{"type":"Point","coordinates":[4.49075442438339,52.1605937828961]},"properties":{"OBJECTID":11,"ID":"LZI0128","ZICHTB":"Aanwezig","OMSCHR":"De Hartebrugkerk als zichtlocatie.","FUNCTIE":"Zichtlocatie","NAUWK":"Nauwkeurig (object nog (deels) aanwezig/herkenbaar)","BRONGEO":"Huidige topografie","NAAMNU":"Hartebrugkerk","NAAMHIST":"Hartebrugkerk","LIT":"Bron: Gemeente Leiden","LITTOEV":null}},{"type":"Feature","id":12,"geometry":{"type":"Point","coordinates":[4.49203151969697,52.1580374173288]},"properties":{"OBJECTID":12,"ID":"LZI0129","ZICHTB":"Aanwezig","OMSCHR":"De Koornbrugals zichtlocatie.","FUNCTIE":"Zichtlocatie","NAUWK":"Nauwkeurig (object nog (deels) aanwezig/herkenbaar)","BRONGEO":"Huidige topografie","NAAMNU":"Koornbrug","NAAMHIST":"Koornbrug","LIT":"Bron: Gemeente Leiden","LITTOEV":null}},{"type":"Feature","id":13,"geometry":{"type":"Point","coordinates":[4.49101592216597,52.158162885779]},"properties":{"OBJECTID":13,"ID":"LZI0130","ZICHTB":"Aanwezig","OMSCHR":"De toren van het stadhuis als zichtlocatie.","FUNCTIE":"Zichtlocatie","NAUWK":"Nauwkeurig (object nog (deels) aanwezig/herkenbaar)","BRONGEO":"Huidige topografie","NAAMNU":"Stadhuis (toren)","NAAMHIST":"Stadhuis (toren)","LIT":"Bron: Gemeente Leiden","LITTOEV":null}},{"type":"Feature","id":14,"geometry":{"type":"Point","coordinates":[4.49405969372464,52.1636471043279]},"properties":{"OBJECTID":14,"ID":"LZI0131","ZICHTB":"Aanwezig","OMSCHR":"De schoorsteen van de elektriciteitscentrale als zichtobject.","FUNCTIE":"Zichtlocatie","NAUWK":"Nauwkeurig (object nog (deels) aanwezig/herkenbaar)","BRONGEO":"Huidige topografie","NAAMNU":"Elektriciteitscentrale (schoorsteen)","NAAMHIST":"Elektriciteitscentrale (schoorsteen)","LIT":"Bron: Gemeente Leiden","LITTOEV":null}},{"type":"Feature","id":15,"geometry":{"type":"Point","coordinates":[4.49074756574619,52.1620048218231]},"properties":{"OBJECTID":15,"ID":"LZI0132","ZICHTB":"Aanwezig","OMSCHR":"De Marekerk als zichtlocatie.","FUNCTIE":"Zichtlocatie","NAUWK":"Nauwkeurig (object nog (deels) aanwezig/herkenbaar)","BRONGEO":"Huidige topografie","NAAMNU":"Marekerk","NAAMHIST":"Marekerk","LIT":"Bron: Gemeente Leiden","LITTOEV":null}},{"type":"Feature","id":16,"geometry":{"type":"Point","coordinates":[4.48641855564595,52.1644792995337]},"properties":{"OBJECTID":16,"ID":"LZI0133","ZICHTB":"Aanwezig","OMSCHR":"Een van de nog aanwezige molens van Leiden als zichtlocatie.","FUNCTIE":"Zichtlocatie","NAUWK":"Nauwkeurig (object nog (deels) aanwezig/herkenbaar)","BRONGEO":"Huidige topografie","NAAMNU":"Molen de Valk","NAAMHIST":"Molen de Valk","LIT":"Bron: Gemeente Leiden","LITTOEV":null}},{"type":"Feature","id":17,"geometry":{"type":"Point","coordinates":[4.50156139440658,52.1639026379069]},"properties":{"OBJECTID":17,"ID":"LZI0134","ZICHTB":"Aanwezig","OMSCHR":"De OLV Hemlvaart en St. Josephkerk als zichtlocatie.","FUNCTIE":"Zichtlocatie","NAUWK":"Nauwkeurig (object nog (deels) aanwezig/herkenbaar)","BRONGEO":"Huidige topografie","NAAMNU":"OLV Hemlvaart en St. Josephkerk","NAAMHIST":"OLV Hemlvaart en St. Josephkerk","LIT":"Bron: Gemeente Leiden","LITTOEV":null}},{"type":"Feature","id":18,"geometry":{"type":"Point","coordinates":[4.48885096795819,52.1596695090172]},"properties":{"OBJECTID":18,"ID":"LZI0135","ZICHTB":"Aanwezig","OMSCHR":"De Stadsgehoorzaal als zichtlocatie.","FUNCTIE":"Zichtlocatie","NAUWK":"Nauwkeurig (object nog (deels) aanwezig/herkenbaar)","BRONGEO":"Huidige topografie","NAAMNU":"Stadsgehoorzaal","NAAMHIST":"Stadsgehoorzaal","LIT":"Bron: Gemeente Leiden","LITTOEV":null}},{"type":"Feature","id":19,"geometry":{"type":"Point","coordinates":[4.4838912183576,52.1548499526954]},"properties":{"OBJECTID":19,"ID":"LZI0136","ZICHTB":"Aanwezig","OMSCHR":"De Sterrenwachtals zichtlocatie.","FUNCTIE":"Zichtlocatie","NAUWK":"Nauwkeurig (object nog (deels) aanwezig/herkenbaar)","BRONGEO":"Huidige topografie","NAAMNU":"Sterrenwacht","NAAMHIST":"Sterrenwacht","LIT":"Bron: Gemeente Leiden","LITTOEV":null}},{"type":"Feature","id":20,"geometry":{"type":"Point","coordinates":[4.49572684112781,52.1504289252371]},"properties":{"OBJECTID":20,"ID":"LZI0137","ZICHTB":"Aanwezig","OMSCHR":"De Petruskerk als zichtlocatie.","FUNCTIE":"Zichtlocatie","NAUWK":"Nauwkeurig (object nog (deels) aanwezig/herkenbaar)","BRONGEO":"Huidige topografie","NAAMNU":"Petruskerk","NAAMHIST":"Petruskerk","LIT":"Bron: Gemeente Leiden","LITTOEV":null}},{"type":"Feature","id":21,"geometry":{"type":"Point","coordinates":[4.48483548785841,52.1525405024455]},"properties":{"OBJECTID":21,"ID":"LZI0138","ZICHTB":"Aanwezig","OMSCHR":"De Laboratoria (Vreewijk)als zichtlocatie.","FUNCTIE":"Zichtlocatie","NAUWK":"Nauwkeurig (object nog (deels) aanwezig/herkenbaar)","BRONGEO":"Huidige topografie","NAAMNU":"Laboratoria (Vreewijk)","NAAMHIST":"Laboratoria (Vreewijk)","LIT":"Bron: Gemeente Leiden","LITTOEV":null}},{"type":"Feature","id":22,"geometry":{"type":"Point","coordinates":[4.48714311968612,52.1768421236664]},"properties":{"OBJECTID":22,"ID":"LZI0139","ZICHTB":"Aanwezig","OMSCHR":"Een van de nog aanwezige molens van Leiden als zichtlocatie.","FUNCTIE":"Zichtlocatie","NAUWK":"Nauwkeurig (object nog (deels) aanwezig/herkenbaar)","BRONGEO":"Huidige topografie","NAAMNU":"Kikkermolen","NAAMHIST":"Kikkermolen","LIT":"Bron: Gemeente Leiden","LITTOEV":null}},{"type":"Feature","id":23,"geometry":{"type":"Point","coordinates":[4.48715862370962,52.1728949170283]},"properties":{"OBJECTID":23,"ID":"LZI0140","ZICHTB":"Aanwezig","OMSCHR":"Een van de nog aanwezige molens van Leiden als zichtlocatie.","FUNCTIE":"Zichtlocatie","NAUWK":"Nauwkeurig (object nog (deels) aanwezig/herkenbaar)","BRONGEO":"Huidige topografie","NAAMNU":"Maredijkmolen","NAAMHIST":"Maredijkmolen","LIT":"Bron: Gemeente Leiden","LITTOEV":null}},{"type":"Feature","id":24,"geometry":{"type":"Point","coordinates":[4.48914679575767,52.1735125182961]},"properties":{"OBJECTID":24,"ID":"LZI0141","ZICHTB":"Aanwezig","OMSCHR":"Een van de nog aanwezige molens van Leiden als zichtlocatie.","FUNCTIE":"Zichtlocatie","NAUWK":"Nauwkeurig (object nog (deels) aanwezig/herkenbaar)","BRONGEO":"Huidige topografie","NAAMNU":"Molen de Herder","NAAMHIST":"Molen de Herder","LIT":"Bron: Gemeente Leiden","LITTOEV":null}},{"type":"Feature","id":25,"geometry":{"type":"Point","coordinates":[4.49789713492164,52.1724581128463]},"properties":{"OBJECTID":25,"ID":"LZI0142","ZICHTB":"Aanwezig","OMSCHR":"Een van de nog aanwezige molens van Leiden als zichtlocatie.","FUNCTIE":"Zichtlocatie","NAUWK":"Nauwkeurig (object nog (deels) aanwezig/herkenbaar)","BRONGEO":"Huidige topografie","NAAMNU":"Stadsmolen","NAAMHIST":"Stadsmolen","LIT":"Bron: Gemeente Leiden","LITTOEV":null}},{"type":"Feature","id":26,"geometry":{"type":"Point","coordinates":[4.481942275738,52.1613549234084]},"properties":{"OBJECTID":26,"ID":"LZI0143","ZICHTB":"Aanwezig","OMSCHR":"Een van de nog aanwezige molens van Leiden als zichtlocatie.","FUNCTIE":"Zichtlocatie","NAUWK":"Nauwkeurig (object nog (deels) aanwezig/herkenbaar)","BRONGEO":"Huidige topografie","NAAMNU":"Molen de Put","NAAMHIST":"Molen de Put","LIT":"Bron: Gemeente Leiden","LITTOEV":null}},{"type":"Feature","id":27,"geometry":{"type":"Point","coordinates":[4.4722756522893,52.1567643991354]},"properties":{"OBJECTID":27,"ID":"LZI0144","ZICHTB":"Aanwezig","OMSCHR":"Een van de nog aanwezige molens van Leiden als zichtlocatie.","FUNCTIE":"Zichtlocatie","NAUWK":"Nauwkeurig (object nog (deels) aanwezig/herkenbaar)","BRONGEO":"Huidige topografie","NAAMNU":"Houtzaagmolen","NAAMHIST":"Houtzaagmolen","LIT":"Bron: Gemeente Leiden","LITTOEV":null}},{"type":"Feature","id":28,"geometry":{"type":"Point","coordinates":[4.50327784584416,52.1464037451659]},"properties":{"OBJECTID":28,"ID":"LZI0145","ZICHTB":"Aanwezig","OMSCHR":"Een van de nog aanwezige molens van Leiden als zichtlocatie.","FUNCTIE":"Zichtlocatie","NAUWK":"Nauwkeurig (object nog (deels) aanwezig/herkenbaar)","BRONGEO":"Huidige topografie","NAAMNU":"Rodenburgermolen","NAAMHIST":"Rodenburgermolen","LIT":"Bron: Gemeente Leiden","LITTOEV":null}},{"type":"Feature","id":29,"geometry":{"type":"Point","coordinates":[4.44318770841778,52.150676389708]},"properties":{"OBJECTID":29,"ID":"LZI0146","ZICHTB":"Aanwezig","OMSCHR":"Een van de nog aanwezige molens van Leiden als zichtlocatie.","FUNCTIE":"Zichtlocatie","NAUWK":"Nauwkeurig (object nog (deels) aanwezig/herkenbaar)","BRONGEO":"Huidige topografie","NAAMNU":"Stevenhofjesmolen","NAAMHIST":"Stevenhofjesmolen","LIT":"Bron: Gemeente Leiden","LITTOEV":null}}]}